[
  {
    "name": "Basketballplatz",
    "coordinates": [52.523619, 13.397243],
    "sportType": "basketball"
  },
  {
    "name": "Basketballfeld am Invalidenpark",
    "coordinates": [52.531927, 13.374413],
    "sportType": "basketball"
  },
  {
    "name": "Basketballplatz am Christburger Str",
    "coordinates": [52.536783, 13.428143],
    "sportType": "basketball"
  },
  {
    "name": "Sportplatz mit Basketballfeld",
    "coordinates": [52.528585, 13.42059],
    "sportType": "basketball"
  },
  {
    "name": "Basketball court in Bötzowstraße",
    "coordinates": [52.534381, 13.43707],
    "sportType": "basketball"
  },
  {
    "name": "Basketball Court Am Friedrichshain",
    "coordinates": [52.530204, 13.433379],
    "sportType": "basketball"
  },
  {
    "name": "Basketball am Andreasstraße",
    "coordinates": [52.516993, 13.432597],
    "sportType": "basketball"
  },
  {
    "name": "Basketball am Müncheberger Str",
    "coordinates": [52.513246, 13.435601],
    "sportType": "basketball"
  },
  {
    "name": "Urban Playground",
    "coordinates": [52.510081, 13.422718],
    "sportType": "basketball"
  },
  {
    "name": "Basketball am Franz-Klühs-Straße",
    "coordinates": [52.501098, 13.389901],
    "sportType": "basketball"
  },
  {
    "name": "FBL Berlin e.V.",
    "coordinates": [52.500238, 13.399475],
    "sportType": "basketball"
  },
  {
    "name": "Streetball Court",
    "coordinates": [52.496448, 13.373798],
    "sportType": "basketball"
  },
  {
    "name": "Basketball Court Schleiermacherstraße",
    "coordinates": [52.492455, 13.398696],
    "sportType": "basketball"
  },
  {
    "name": "Basketballfeld",
    "coordinates": [52.481851, 13.357405],
    "sportType": "basketball"
  },
  {
    "name": "ASV Moabit Basketball e.V.",
    "coordinates": [52.533398, 13.339939],
    "sportType": "basketball"
  }
]
